codigo_ibge,nome_x,latitude_x,longitude_x,capital,codigo_uf,siafi_id,ddd,fuso_horario,uf,nome_y,latitude_y,longitude_y,regiao
2300101,Abaiara,-7.34588,-39.0416,0,23,1301,88,America/Sao_Paulo,CE,Ceará,-5.2,-39.53,Nordeste
2300150,Acarape,-4.22083,-38.7055,0,23,1231,85,America/Sao_Paulo,CE,Ceará,-5.2,-39.53,Nordeste
2300200,Acaraú,-2.88769,-40.1183,0,23,1303,88,America/Sao_Paulo,CE,Ceará,-5.2,-39.53,Nordeste
2300309,Acopiara,-6.08911,-39.448,0,23,1305,88,America/Sao_Paulo,CE,Ceará,-5.2,-39.53,Nordeste
2300408,Aiuaba,-6.57122,-40.1178,0,23,1307,88,America/Sao_Paulo,CE,Ceará,-5.2,-39.53,Nordeste
2300507,Alcântaras,-3.58537,-40.5479,0,23,1309,88,America/Sao_Paulo,CE,Ceará,-5.2,-39.53,Nordeste
2300606,Altaneira,-6.99837,-39.7356,0,23,1311,88,America/Sao_Paulo,CE,Ceará,-5.2,-39.53,Nordeste
2300705,Alto Santo,-5.50894,-38.2743,0,23,1313,88,America/Sao_Paulo,CE,Ceará,-5.2,-39.53,Nordeste
2300754,Amontada,-3.36017,-39.8288,0,23,1587,88,America/Sao_Paulo,CE,Ceará,-5.2,-39.53,Nordeste
2300804,Antonina do Norte,-6.76919,-39.987,0,23,1315,88,America/Sao_Paulo,CE,Ceará,-5.2,-39.53,Nordeste
2300903,Apuiarés,-3.94506,-39.4359,0,23,1317,85,America/Sao_Paulo,CE,Ceará,-5.2,-39.53,Nordeste
2301000,Aquiraz,-3.89929,-38.3896,0,23,1319,85,America/Sao_Paulo,CE,Ceará,-5.2,-39.53,Nordeste
2301109,Aracati,-4.55826,-37.7679,0,23,1321,88,America/Sao_Paulo,CE,Ceará,-5.2,-39.53,Nordeste
2301208,Aracoiaba,-4.36872,-38.8125,0,23,1323,85,America/Sao_Paulo,CE,Ceará,-5.2,-39.53,Nordeste
2301257,Ararendá,-4.74567,-40.831,0,23,989,88,America/Sao_Paulo,CE,Ceará,-5.2,-39.53,Nordeste
2301307,Araripe,-7.21319,-40.1359,0,23,1325,88,America/Sao_Paulo,CE,Ceará,-5.2,-39.53,Nordeste
2301406,Aratuba,-4.41229,-39.0471,0,23,1327,85,America/Sao_Paulo,CE,Ceará,-5.2,-39.53,Nordeste
2301505,Arneiroz,-6.3165,-40.1653,0,23,1329,88,America/Sao_Paulo,CE,Ceará,-5.2,-39.53,Nordeste
2301604,Assaré,-6.8669,-39.8689,0,23,1331,88,America/Sao_Paulo,CE,Ceará,-5.2,-39.53,Nordeste
2301703,Aurora,-6.93349,-38.9742,0,23,1333,88,America/Sao_Paulo,CE,Ceará,-5.2,-39.53,Nordeste
2301802,Baixio,-6.71945,-38.7134,0,23,1335,88,America/Sao_Paulo,CE,Ceará,-5.2,-39.53,Nordeste
2301851,Banabuiú,-5.30454,-38.9132,0,23,1233,88,America/Sao_Paulo,CE,Ceará,-5.2,-39.53,Nordeste
2301901,Barbalha,-7.2982,-39.3021,0,23,1337,88,America/Sao_Paulo,CE,Ceará,-5.2,-39.53,Nordeste
2301950,Barreira,-4.28921,-38.6429,0,23,1235,85,America/Sao_Paulo,CE,Ceará,-5.2,-39.53,Nordeste
2302008,Barro,-7.17188,-38.7741,0,23,1339,88,America/Sao_Paulo,CE,Ceará,-5.2,-39.53,Nordeste
2302057,Barroquinha,-3.02051,-41.1358,0,23,1237,88,America/Sao_Paulo,CE,Ceará,-5.2,-39.53,Nordeste
2302107,Baturité,-4.32598,-38.8812,0,23,1341,85,America/Sao_Paulo,CE,Ceará,-5.2,-39.53,Nordeste
2302206,Beberibe,-4.17741,-38.1271,0,23,1343,85,America/Sao_Paulo,CE,Ceará,-5.2,-39.53,Nordeste
2302305,Bela Cruz,-3.04996,-40.1671,0,23,1345,88,America/Sao_Paulo,CE,Ceará,-5.2,-39.53,Nordeste
2302404,Boa Viagem,-5.11258,-39.7337,0,23,1347,88,America/Sao_Paulo,CE,Ceará,-5.2,-39.53,Nordeste
2302503,Brejo Santo,-7.48469,-38.9799,0,23,1349,88,America/Sao_Paulo,CE,Ceará,-5.2,-39.53,Nordeste
2302602,Camocim,-2.9005,-40.8544,0,23,1351,88,America/Sao_Paulo,CE,Ceará,-5.2,-39.53,Nordeste
2302701,Campos Sales,-7.06761,-40.3687,0,23,1353,88,America/Sao_Paulo,CE,Ceará,-5.2,-39.53,Nordeste
2302800,Canindé,-4.35162,-39.3155,0,23,1355,85,America/Sao_Paulo,CE,Ceará,-5.2,-39.53,Nordeste
2302909,Capistrano,-4.45569,-38.9048,0,23,1357,85,America/Sao_Paulo,CE,Ceará,-5.2,-39.53,Nordeste
2303006,Caridade,-4.22514,-39.1912,0,23,1359,85,America/Sao_Paulo,CE,Ceará,-5.2,-39.53,Nordeste
2303105,Cariré,-3.94858,-40.476,0,23,1361,88,America/Sao_Paulo,CE,Ceará,-5.2,-39.53,Nordeste
2303204,Caririaçu,-7.02808,-39.2828,0,23,1363,88,America/Sao_Paulo,CE,Ceará,-5.2,-39.53,Nordeste
2303303,Cariús,-6.52428,-39.4916,0,23,1365,88,America/Sao_Paulo,CE,Ceará,-5.2,-39.53,Nordeste
2303402,Carnaubal,-4.15985,-40.9413,0,23,1367,88,America/Sao_Paulo,CE,Ceará,-5.2,-39.53,Nordeste
2303501,Cascavel,-4.12967,-38.2412,0,23,1369,85,America/Sao_Paulo,CE,Ceará,-5.2,-39.53,Nordeste
2303600,Catarina,-6.12291,-39.8736,0,23,1371,88,America/Sao_Paulo,CE,Ceará,-5.2,-39.53,Nordeste
2303659,Catunda,-4.64336,-40.2,0,23,983,88,America/Sao_Paulo,CE,Ceará,-5.2,-39.53,Nordeste
2303709,Caucaia,-3.72797,-38.6619,0,23,1373,85,America/Sao_Paulo,CE,Ceará,-5.2,-39.53,Nordeste
2303808,Cedro,-6.60034,-39.0609,0,23,1375,88,America/Sao_Paulo,CE,Ceará,-5.2,-39.53,Nordeste
2303907,Chaval,-3.03571,-41.2435,0,23,1377,88,America/Sao_Paulo,CE,Ceará,-5.2,-39.53,Nordeste
2303931,Choró,-4.83906,-39.1344,0,23,993,88,America/Sao_Paulo,CE,Ceará,-5.2,-39.53,Nordeste
2303956,Chorozinho,-4.28873,-38.4986,0,23,1239,85,America/Sao_Paulo,CE,Ceará,-5.2,-39.53,Nordeste
2304004,Coreaú,-3.5415,-40.6587,0,23,1381,88,America/Sao_Paulo,CE,Ceará,-5.2,-39.53,Nordeste
2304103,Crateús,-5.16768,-40.6536,0,23,1383,88,America/Sao_Paulo,CE,Ceará,-5.2,-39.53,Nordeste
2304202,Crato,-7.2153,-39.4103,0,23,1385,88,America/Sao_Paulo,CE,Ceará,-5.2,-39.53,Nordeste
2304236,Croatá,-4.40481,-40.9022,0,23,1241,88,America/Sao_Paulo,CE,Ceará,-5.2,-39.53,Nordeste
2304251,Cruz,-2.91813,-40.176,0,23,1589,88,America/Sao_Paulo,CE,Ceará,-5.2,-39.53,Nordeste
2304269,Deputado Irapuan Pinheiro,-5.91485,-39.257,0,23,1243,88,America/Sao_Paulo,CE,Ceará,-5.2,-39.53,Nordeste
2304277,Ererê,-6.02751,-38.3461,0,23,1245,88,America/Sao_Paulo,CE,Ceará,-5.2,-39.53,Nordeste
2304285,Eusébio,-3.8925,-38.4559,0,23,1247,85,America/Sao_Paulo,CE,Ceará,-5.2,-39.53,Nordeste
2304301,Farias Brito,-6.92146,-39.5651,0,23,1387,88,America/Sao_Paulo,CE,Ceará,-5.2,-39.53,Nordeste
2304350,Forquilha,-3.79945,-40.2634,0,23,1591,88,America/Sao_Paulo,CE,Ceará,-5.2,-39.53,Nordeste
2304400,Fortaleza,-3.71664,-38.5423,1,23,1389,85,America/Sao_Paulo,CE,Ceará,-5.2,-39.53,Nordeste
2304459,Fortim,-4.45126,-37.7981,0,23,987,88,America/Sao_Paulo,CE,Ceará,-5.2,-39.53,Nordeste
2304509,Frecheirinha,-3.75557,-40.818,0,23,1391,88,America/Sao_Paulo,CE,Ceará,-5.2,-39.53,Nordeste
2304608,General Sampaio,-4.04351,-39.454,0,23,1393,85,America/Sao_Paulo,CE,Ceará,-5.2,-39.53,Nordeste
2304657,Graça,-4.04422,-40.749,0,23,1249,88,America/Sao_Paulo,CE,Ceará,-5.2,-39.53,Nordeste
2304707,Granja,-3.12788,-40.8372,0,23,1395,88,America/Sao_Paulo,CE,Ceará,-5.2,-39.53,Nordeste
2304806,Granjeiro,-6.88134,-39.2144,0,23,1397,88,America/Sao_Paulo,CE,Ceará,-5.2,-39.53,Nordeste
2304905,Groaíras,-3.91787,-40.3852,0,23,1399,88,America/Sao_Paulo,CE,Ceará,-5.2,-39.53,Nordeste
2304954,Guaiúba,-4.04057,-38.6404,0,23,1251,85,America/Sao_Paulo,CE,Ceará,-5.2,-39.53,Nordeste
2305001,Guaraciaba do Norte,-4.15814,-40.7476,0,23,1401,88,America/Sao_Paulo,CE,Ceará,-5.2,-39.53,Nordeste
2305100,Guaramiranga,-4.26248,-38.932,0,23,1403,85,America/Sao_Paulo,CE,Ceará,-5.2,-39.53,Nordeste
2305209,Hidrolândia,-4.40958,-40.4056,0,23,1405,88,America/Sao_Paulo,CE,Ceará,-5.2,-39.53,Nordeste
2305233,Horizonte,-4.1209,-38.4707,0,23,1253,85,America/Sao_Paulo,CE,Ceará,-5.2,-39.53,Nordeste
2305266,Ibaretama,-4.80376,-38.7501,0,23,1255,88,America/Sao_Paulo,CE,Ceará,-5.2,-39.53,Nordeste
2305308,Ibiapina,-3.92403,-40.8911,0,23,1407,88,America/Sao_Paulo,CE,Ceará,-5.2,-39.53,Nordeste
2305332,Ibicuitinga,-4.96999,-38.6362,0,23,1257,88,America/Sao_Paulo,CE,Ceará,-5.2,-39.53,Nordeste
2305357,Icapuí,-4.71206,-37.3531,0,23,1593,88,America/Sao_Paulo,CE,Ceará,-5.2,-39.53,Nordeste
2305407,Icó,-6.39627,-38.8554,0,23,1409,88,America/Sao_Paulo,CE,Ceará,-5.2,-39.53,Nordeste
2305506,Iguatu,-6.36281,-39.2892,0,23,1411,88,America/Sao_Paulo,CE,Ceará,-5.2,-39.53,Nordeste
2305605,Independência,-5.38789,-40.3085,0,23,1413,88,America/Sao_Paulo,CE,Ceará,-5.2,-39.53,Nordeste
2305654,Ipaporanga,-4.89764,-40.7537,0,23,1259,88,America/Sao_Paulo,CE,Ceará,-5.2,-39.53,Nordeste
2305704,Ipaumirim,-6.78265,-38.7179,0,23,1415,88,America/Sao_Paulo,CE,Ceará,-5.2,-39.53,Nordeste
2305803,Ipu,-4.31748,-40.7059,0,23,1417,88,America/Sao_Paulo,CE,Ceará,-5.2,-39.53,Nordeste
2305902,Ipueiras,-4.53802,-40.7118,0,23,1419,88,America/Sao_Paulo,CE,Ceará,-5.2,-39.53,Nordeste
2306009,Iracema,-5.8124,-38.2919,0,23,1421,88,America/Sao_Paulo,CE,Ceará,-5.2,-39.53,Nordeste
2306108,Irauçuba,-3.74737,-39.7843,0,23,1423,88,America/Sao_Paulo,CE,Ceará,-5.2,-39.53,Nordeste
2306207,Itaiçaba,-4.67146,-37.833,0,23,1425,88,America/Sao_Paulo,CE,Ceará,-5.2,-39.53,Nordeste
2306256,Itaitinga,-3.96577,-38.5298,0,23,991,85,America/Sao_Paulo,CE,Ceará,-5.2,-39.53,Nordeste
2306306,Itapajé,-3.68314,-39.5855,0,23,1427,85,America/Sao_Paulo,CE,Ceará,-5.2,-39.53,Nordeste
2306405,Itapipoca,-3.49933,-39.5836,0,23,1429,88,America/Sao_Paulo,CE,Ceará,-5.2,-39.53,Nordeste
2306504,Itapiúna,-4.55516,-38.9281,0,23,1431,88,America/Sao_Paulo,CE,Ceará,-5.2,-39.53,Nordeste
2306553,Itarema,-2.9248,-39.9167,0,23,1595,88,America/Sao_Paulo,CE,Ceará,-5.2,-39.53,Nordeste
2306603,Itatira,-4.52608,-39.6202,0,23,1433,88,America/Sao_Paulo,CE,Ceará,-5.2,-39.53,Nordeste
2306702,Jaguaretama,-5.6051,-38.7639,0,23,1435,88,America/Sao_Paulo,CE,Ceará,-5.2,-39.53,Nordeste
2306801,Jaguaribara,-5.67765,-38.5359,0,23,1437,88,America/Sao_Paulo,CE,Ceará,-5.2,-39.53,Nordeste
2306900,Jaguaribe,-5.90213,-38.6227,0,23,1439,88,America/Sao_Paulo,CE,Ceará,-5.2,-39.53,Nordeste
2307007,Jaguaruana,-4.83151,-37.781,0,23,1441,88,America/Sao_Paulo,CE,Ceará,-5.2,-39.53,Nordeste
2307106,Jardim,-7.57599,-39.2826,0,23,1443,88,America/Sao_Paulo,CE,Ceará,-5.2,-39.53,Nordeste
2307205,Jati,-7.6797,-39.0029,0,23,1445,88,America/Sao_Paulo,CE,Ceará,-5.2,-39.53,Nordeste
2307254,Jijoca de Jericoacoara,-2.79331,-40.5127,0,23,985,88,America/Sao_Paulo,CE,Ceará,-5.2,-39.53,Nordeste
2307304,Juazeiro do Norte,-7.19621,-39.3076,0,23,1447,88,America/Sao_Paulo,CE,Ceará,-5.2,-39.53,Nordeste
2307403,Jucás,-6.51523,-39.5187,0,23,1449,88,America/Sao_Paulo,CE,Ceará,-5.2,-39.53,Nordeste
2307502,Lavras da Mangabeira,-6.7448,-38.9706,0,23,1451,88,America/Sao_Paulo,CE,Ceará,-5.2,-39.53,Nordeste
2307601,Limoeiro do Norte,-5.14392,-38.0847,0,23,1453,88,America/Sao_Paulo,CE,Ceará,-5.2,-39.53,Nordeste
2307635,Madalena,-4.84601,-39.5725,0,23,1261,88,America/Sao_Paulo,CE,Ceará,-5.2,-39.53,Nordeste
2307650,Maracanaú,-3.86699,-38.6259,0,23,1585,85,America/Sao_Paulo,CE,Ceará,-5.2,-39.53,Nordeste
2307700,Maranguape,-3.89143,-38.6829,0,23,1455,85,America/Sao_Paulo,CE,Ceará,-5.2,-39.53,Nordeste
2307809,Marco,-3.1285,-40.1582,0,23,1457,88,America/Sao_Paulo,CE,Ceará,-5.2,-39.53,Nordeste
2307908,Martinópole,-3.2252,-40.6896,0,23,1459,88,America/Sao_Paulo,CE,Ceará,-5.2,-39.53,Nordeste
2308005,Massapê,-3.52364,-40.3423,0,23,1461,88,America/Sao_Paulo,CE,Ceará,-5.2,-39.53,Nordeste
2308104,Mauriti,-7.38597,-38.7708,0,23,1463,88,America/Sao_Paulo,CE,Ceará,-5.2,-39.53,Nordeste
2308203,Meruoca,-3.53974,-40.4531,0,23,1465,88,America/Sao_Paulo,CE,Ceará,-5.2,-39.53,Nordeste
2308302,Milagres,-7.29749,-38.9378,0,23,1467,88,America/Sao_Paulo,CE,Ceará,-5.2,-39.53,Nordeste
2308351,Milhã,-5.67252,-39.1875,0,23,1597,88,America/Sao_Paulo,CE,Ceará,-5.2,-39.53,Nordeste
2308377,Miraíma,-3.56867,-39.9663,0,23,1263,88,America/Sao_Paulo,CE,Ceará,-5.2,-39.53,Nordeste
2308401,Missão Velha,-7.23522,-39.143,0,23,1469,88,America/Sao_Paulo,CE,Ceará,-5.2,-39.53,Nordeste
2308500,Mombaça,-5.73844,-39.63,0,23,1471,88,America/Sao_Paulo,CE,Ceará,-5.2,-39.53,Nordeste
2308609,Monsenhor Tabosa,-4.79102,-40.0646,0,23,1473,88,America/Sao_Paulo,CE,Ceará,-5.2,-39.53,Nordeste
2308708,Morada Nova,-5.09736,-38.3702,0,23,1475,88,America/Sao_Paulo,CE,Ceará,-5.2,-39.53,Nordeste
2308807,Moraújo,-3.46311,-40.6776,0,23,1477,88,America/Sao_Paulo,CE,Ceará,-5.2,-39.53,Nordeste
2308906,Morrinhos,-3.23426,-40.1233,0,23,1479,88,America/Sao_Paulo,CE,Ceará,-5.2,-39.53,Nordeste
2309003,Mucambo,-3.90271,-40.7452,0,23,1481,88,America/Sao_Paulo,CE,Ceará,-5.2,-39.53,Nordeste
2309102,Mulungu,-4.30294,-38.9951,0,23,1483,85,America/Sao_Paulo,CE,Ceará,-5.2,-39.53,Nordeste
2309201,Nova Olinda,-7.08415,-39.6713,0,23,1485,88,America/Sao_Paulo,CE,Ceará,-5.2,-39.53,Nordeste
2309300,Nova Russas,-4.70581,-40.5621,0,23,1487,88,America/Sao_Paulo,CE,Ceará,-5.2,-39.53,Nordeste
2309409,Novo Oriente,-5.52552,-40.7713,0,23,1489,88,America/Sao_Paulo,CE,Ceará,-5.2,-39.53,Nordeste
2309458,Ocara,-4.48523,-38.5933,0,23,1265,85,America/Sao_Paulo,CE,Ceará,-5.2,-39.53,Nordeste
2309508,Orós,-6.25182,-38.9053,0,23,1491,88,America/Sao_Paulo,CE,Ceará,-5.2,-39.53,Nordeste
2309607,Pacajus,-4.17107,-38.465,0,23,1493,85,America/Sao_Paulo,CE,Ceará,-5.2,-39.53,Nordeste
2309706,Pacatuba,-3.9784,-38.6183,0,23,1495,85,America/Sao_Paulo,CE,Ceará,-5.2,-39.53,Nordeste
2309805,Pacoti,-4.22492,-38.922,0,23,1497,85,America/Sao_Paulo,CE,Ceará,-5.2,-39.53,Nordeste
2309904,Pacujá,-3.98327,-40.6989,0,23,1499,88,America/Sao_Paulo,CE,Ceará,-5.2,-39.53,Nordeste
2310001,Palhano,-4.73672,-37.9655,0,23,1501,88,America/Sao_Paulo,CE,Ceará,-5.2,-39.53,Nordeste
2310100,Palmácia,-4.13831,-38.8446,0,23,1503,85,America/Sao_Paulo,CE,Ceará,-5.2,-39.53,Nordeste
2310209,Paracuru,-3.41436,-39.03,0,23,1505,85,America/Sao_Paulo,CE,Ceará,-5.2,-39.53,Nordeste
2310258,Paraipaba,-3.43799,-39.1479,0,23,1599,85,America/Sao_Paulo,CE,Ceará,-5.2,-39.53,Nordeste
2310308,Parambu,-6.20768,-40.6905,0,23,1507,88,America/Sao_Paulo,CE,Ceará,-5.2,-39.53,Nordeste
2310407,Paramoti,-4.08815,-39.2417,0,23,1509,85,America/Sao_Paulo,CE,Ceará,-5.2,-39.53,Nordeste
2310506,Pedra Branca,-5.45341,-39.7078,0,23,1511,88,America/Sao_Paulo,CE,Ceará,-5.2,-39.53,Nordeste
2310605,Penaforte,-7.82163,-39.0707,0,23,1513,88,America/Sao_Paulo,CE,Ceará,-5.2,-39.53,Nordeste
2310704,Pentecoste,-3.79274,-39.2692,0,23,1515,85,America/Sao_Paulo,CE,Ceará,-5.2,-39.53,Nordeste
2310803,Pereiro,-6.03576,-38.4624,0,23,1517,88,America/Sao_Paulo,CE,Ceará,-5.2,-39.53,Nordeste
2310852,Pindoretama,-4.01584,-38.3061,0,23,1267,85,America/Sao_Paulo,CE,Ceará,-5.2,-39.53,Nordeste
2310902,Piquet Carneiro,-5.80025,-39.417,0,23,1519,88,America/Sao_Paulo,CE,Ceará,-5.2,-39.53,Nordeste
2310951,Pires Ferreira,-4.23922,-40.6442,0,23,1269,88,America/Sao_Paulo,CE,Ceará,-5.2,-39.53,Nordeste
2311009,Poranga,-4.74672,-40.9205,0,23,1521,88,America/Sao_Paulo,CE,Ceará,-5.2,-39.53,Nordeste
2311108,Porteiras,-7.52265,-39.114,0,23,1523,88,America/Sao_Paulo,CE,Ceará,-5.2,-39.53,Nordeste
2311207,Potengi,-7.09154,-40.0233,0,23,1525,88,America/Sao_Paulo,CE,Ceará,-5.2,-39.53,Nordeste
2311231,Potiretama,-5.71287,-38.1578,0,23,1271,88,America/Sao_Paulo,CE,Ceará,-5.2,-39.53,Nordeste
2311264,Quiterianópolis,-5.8425,-40.7002,0,23,9917,88,America/Sao_Paulo,CE,Ceará,-5.2,-39.53,Nordeste
2311306,Quixadá,-4.9663,-39.0155,0,23,1527,88,America/Sao_Paulo,CE,Ceará,-5.2,-39.53,Nordeste
2311355,Quixelô,-6.24637,-39.2011,0,23,9853,88,America/Sao_Paulo,CE,Ceará,-5.2,-39.53,Nordeste
2311405,Quixeramobim,-5.19067,-39.2889,0,23,1529,88,America/Sao_Paulo,CE,Ceará,-5.2,-39.53,Nordeste
2311504,Quixeré,-5.07148,-37.9802,0,23,1531,88,America/Sao_Paulo,CE,Ceará,-5.2,-39.53,Nordeste
2311603,Redenção,-4.21587,-38.7277,0,23,1533,85,America/Sao_Paulo,CE,Ceará,-5.2,-39.53,Nordeste
2311702,Reriutaba,-4.14191,-40.5759,0,23,1535,88,America/Sao_Paulo,CE,Ceará,-5.2,-39.53,Nordeste
2311801,Russas,-4.92673,-37.9721,0,23,1537,88,America/Sao_Paulo,CE,Ceará,-5.2,-39.53,Nordeste
2311900,Saboeiro,-6.5346,-39.9017,0,23,1539,88,America/Sao_Paulo,CE,Ceará,-5.2,-39.53,Nordeste
2311959,Salitre,-7.28398,-40.45,0,23,1273,88,America/Sao_Paulo,CE,Ceará,-5.2,-39.53,Nordeste
2312205,Santa Quitéria,-4.32608,-40.1523,0,23,1545,88,America/Sao_Paulo,CE,Ceará,-5.2,-39.53,Nordeste
2312007,Santana do Acaraú,-3.46144,-40.2118,0,23,1541,88,America/Sao_Paulo,CE,Ceará,-5.2,-39.53,Nordeste
2312106,Santana do Cariri,-7.17613,-39.7302,0,23,1543,88,America/Sao_Paulo,CE,Ceará,-5.2,-39.53,Nordeste
2312304,São Benedito,-4.04713,-40.8596,0,23,1547,88,America/Sao_Paulo,CE,Ceará,-5.2,-39.53,Nordeste
2312403,São Gonçalo do Amarante,-3.60515,-38.9726,0,23,1549,85,America/Sao_Paulo,CE,Ceará,-5.2,-39.53,Nordeste
2312502,São João do Jaguaribe,-5.27516,-38.2694,0,23,1551,88,America/Sao_Paulo,CE,Ceará,-5.2,-39.53,Nordeste
2312601,São Luís do Curu,-3.66976,-39.2391,0,23,1553,85,America/Sao_Paulo,CE,Ceará,-5.2,-39.53,Nordeste
2312700,Senador Pompeu,-5.58244,-39.3704,0,23,1555,88,America/Sao_Paulo,CE,Ceará,-5.2,-39.53,Nordeste
2312809,Senador Sá,-3.35305,-40.4662,0,23,1557,88,America/Sao_Paulo,CE,Ceará,-5.2,-39.53,Nordeste
2312908,Sobral,-3.68913,-40.3482,0,23,1559,88,America/Sao_Paulo,CE,Ceará,-5.2,-39.53,Nordeste
2313005,Solonópole,-5.71894,-39.0107,0,23,1561,88,America/Sao_Paulo,CE,Ceará,-5.2,-39.53,Nordeste
2313104,Tabuleiro do Norte,-5.24353,-38.1282,0,23,1563,88,America/Sao_Paulo,CE,Ceará,-5.2,-39.53,Nordeste
2313203,Tamboril,-4.83136,-40.3196,0,23,1565,88,America/Sao_Paulo,CE,Ceará,-5.2,-39.53,Nordeste
2313252,Tarrafas,-6.67838,-39.753,0,23,1275,88,America/Sao_Paulo,CE,Ceará,-5.2,-39.53,Nordeste
2313302,Tauá,-5.98585,-40.2968,0,23,1567,88,America/Sao_Paulo,CE,Ceará,-5.2,-39.53,Nordeste
2313351,Tejuçuoca,-3.98831,-39.5799,0,23,1277,85,America/Sao_Paulo,CE,Ceará,-5.2,-39.53,Nordeste
2313401,Tianguá,-3.72965,-40.9923,0,23,1569,88,America/Sao_Paulo,CE,Ceará,-5.2,-39.53,Nordeste
2313500,Trairi,-3.26932,-39.2681,0,23,1571,85,America/Sao_Paulo,CE,Ceará,-5.2,-39.53,Nordeste
2313559,Tururu,-3.58413,-39.4297,0,23,1279,85,America/Sao_Paulo,CE,Ceará,-5.2,-39.53,Nordeste
2313609,Ubajara,-3.85448,-40.9204,0,23,1573,88,America/Sao_Paulo,CE,Ceará,-5.2,-39.53,Nordeste
2313708,Umari,-6.63893,-38.7008,0,23,1575,88,America/Sao_Paulo,CE,Ceará,-5.2,-39.53,Nordeste
2313757,Umirim,-3.67654,-39.3465,0,23,9855,85,America/Sao_Paulo,CE,Ceará,-5.2,-39.53,Nordeste
2313807,Uruburetama,-3.62316,-39.5107,0,23,1577,85,America/Sao_Paulo,CE,Ceará,-5.2,-39.53,Nordeste
2313906,Uruoca,-3.30819,-40.5628,0,23,1579,88,America/Sao_Paulo,CE,Ceará,-5.2,-39.53,Nordeste
2313955,Varjota,-4.19387,-40.4741,0,23,9857,88,America/Sao_Paulo,CE,Ceará,-5.2,-39.53,Nordeste
2314003,Várzea Alegre,-6.78264,-39.2942,0,23,1581,88,America/Sao_Paulo,CE,Ceará,-5.2,-39.53,Nordeste
2314102,Viçosa do Ceará,-3.5667,-41.0916,0,23,1583,88,America/Sao_Paulo,CE,Ceará,-5.2,-39.53,Nordeste
